{"accounts":[{"_id":"52db1be4be13cbc36e000004","_item":"52af631671c3bd1b25000064","_user":"52af630f71c3bd1b25000063","balance":{"available":null,"current":12230},"meta":{"limit":null,"name":"Plaid Savings","number":"31015"},"institution_type":"fake_institution","type":"depository"},{"_id":"52db1be4be13cbc36e000005","_item":"52af631671c3bd1b25000064","_user":"52af630f71c3bd1b25000063","balance":{"available":null,"current":1113.13},"meta":{"limit":null,"name":"Plaid Checking","number":"65008"},"institution_type":"fake_institution","type":"depository"},{"_id":"52db1be4be13cbc36e000006","_item":"52af631671c3bd1b25000064","_user":"52af630f71c3bd1b25000063","balance":{"available":3721,"current":8.98},"meta":{"limit":3500,"name":"Plaid Credit Card","number":"93004"},"institution_type":"fake_institution","type":"credit"}],"transactions":[{"score":{"master":0.5,"detail":{"identifier":1,"website":1}},"type":{"primary":"digital"},"amount":6.25,"date":"2014-01-16","name":"Amazon","meta":{"location":{},"contact":{"website":"amazon.com"}},"_account":"52db1be4be13cbc36e000004","_id":"52db1be6be13cbc36e00007b","_entity":"51df0130e52532e03b000001"},{"score":{"master":0.5,"detail":{"identifier":1,"website":1}},"type":{"primary":"digital"},"amount":56.26,"date":"2014-01-15","name":"Amazon","meta":{"location":{},"contact":{"website":"amazon.com"}},"_account":"52db1be4be13cbc36e000004","_id":"52db1be7be13cbc36e0000a4","_entity":"51df0130e52532e03b000001"},{"score":{"master":0.5,"detail":{"identifier":1,"website":1}},"type":{"primary":"digital","secondary":"unresolved"},"amount":10,"date":"2014-01-16","name":"GOOGLE CHECKOUT SELLER","meta":{"location":{},"contact":{"website":"google.com"}},"_account":"52db1be4be13cbc36e000004","_id":"52db1be7be13cbc36e0000b5","_entity":"52cca015ec558faf5f030294","category":["Professional","Internet Services"],"category_id":"52544965f71e87d007000119"},{"score":{"master":0.5,"detail":{"identifier":1,"website":1}},"type":{"primary":"digital"},"amount":19.56,"date":"2014-01-14","name":"Amazon","meta":{"location":{},"contact":{"website":"amazon.com"}},"_account":"52db1be4be13cbc36e000004","_id":"52db1be7be13cbc36e0000b7","_entity":"51df0130e52532e03b000001"},{"score":{"master":0.5,"detail":{"identifier":1,"website":1}},"type":{"primary":"digital"},"amount":25.49,"date":"2014-01-03","name":"Amazon","meta":{"location":{},"contact":{"website":"amazon.com"}},"_account":"52db1be4be13cbc36e000004","_id":"52db1be7be13cbc36e0000ae","_entity":"51df0130e52532e03b000001"},{"score":{"master":1,"detail":{"zip":1,"name":1,"state":1,"city":1,"address":1}},"type":{"primary":"unresolved"},"amount":125,"date":"2014-01-10","name":"Int*webpass Inc","meta":{"location":{"zip":"94103","state":"CA","city":"San Francisco","address":"262 7 Th Street"}},"_account":"52db1be4be13cbc36e000004","_id":"52db1bebbe13cbc36e000103","_entity":"5268478c5f23a60b0e00051b","category":["Professional"],"category_id":"52544965f71e87d0070000c3"},{"score":{"master":1,"detail":{"zip":1,"name":1,"state":1,"city":1,"address":1}},"type":{"primary":"unresolved"},"amount":525.25,"date":"2014-01-14","name":"Urbanoutfitterscom Lp","meta":{"location":{"zip":"19112","state":"PA","city":"Philadelphia","address":"5000 S Broad St"}},"_account":"52db1be4be13cbc36e000004","_id":"52db1bebbe13cbc36e00010f","_entity":"526848e85f23a60b0e000cd5","category":["Shops","Digital Purchase"],"category_id":"52544965f71e87d007000193"},{"score":{"master":1,"detail":{"zip":1,"name":1,"state":1,"city":1,"address":1}},"type":{"primary":"unresolved"},"amount":1,"date":"2014-01-09","name":"Online Payment Processed","meta":{"location":{"zip":"94110","state":"CA","city":"San Francisco","address":"# 100"}},"_account":"52db1be4be13cbc36e000004","_id":"52db1be9be13cbc36e0000d6","_entity":"52d46dcee8bb7c7c3b008269","category":["Professional","Internet Services"],"category_id":"52544965f71e87d007000119"},{"score":{"master":1,"detail":{"zip":1,"name":1,"state":1,"city":1,"address":1}},"type":{"primary":"place"},"amount":142.52,"date":"2014-01-06","name":"Jaron Logo","meta":{"location":{"coordinates":{"lng":-122.399262,"lat":37.780718},"zip":"94107","state":"CA","city":"San Francisco","address":"425 4th St"},"contact":{"telephone":"(415) 597-7511"},"ids":{"factual":"a7b474ac-17ba-4fd5-8940-8f51eeedb915"}},"_account":"52db1be4be13cbc36e000004","_id":"52db1beabe13cbc36e0000e2","_entity":"52cd5bf3ec558faf5f03557d","category":["Service","Textiles"],"category_id":"52544965f71e87d00700016b"},{"score":{"master":0.5,"detail":{"identifier":1}},"type":{"primary":"special"},"amount":6.44,"date":"2014-01-08","name":"Square Transaction","meta":{"location":{}},"_account":"52db1be4be13cbc36e000004","_id":"52db1be7be13cbc36e0000c3","_entity":"51df2f3d364351e13d000009"},{"score":{"master":1,"detail":{"zip":1,"name":1,"state":1,"city":1,"address":1}},"type":{"primary":"unresolved"},"amount":516.53,"date":"2014-01-14","name":"Ikea Home Shopping","meta":{"location":{"zip":"21236","state":"NOTTINGHAM","city":"Md","address":"Baltimore"}},"_account":"52db1be4be13cbc36e000004","_id":"52db1be9be13cbc36e0000de","_entity":"52a127c10c16b9c47100035b","category":["Shops","Digital Purchase"],"category_id":"52544965f71e87d007000193"},{"score":{"master":1,"detail":{"zip":1,"name":1,"state":1,"city":1,"address":1}},"type":{"primary":"unresolved"},"amount":59.14,"date":"2014-01-14","name":"Urbanoutfitterscom Lp","meta":{"location":{"zip":"19112","state":"PA","city":"Philadelphia","address":"5000 S Broad St"}},"_account":"52db1be4be13cbc36e000004","_id":"52db1bebbe13cbc36e000116","_entity":"526848e85f23a60b0e000cd5","category":["Shops","Digital Purchase"],"category_id":"52544965f71e87d007000193"},{"score":{"master":0.8,"detail":{"name":1,"state":1,"city":1,"zip":1}},"type":{"primary":"unresolved"},"amount":29.95,"date":"2014-01-09","name":"Freshbooks","meta":{"location":{"zip":"M6R2J5","state":"TORONTO","city":"35 Golden Avenue Suite 105"}},"_account":"52db1be4be13cbc36e000004","_id":"52db1be9be13cbc36e0000d7","_entity":"52a4978ae411f6f2070204c4","category":["Professional","Financial","Banking and Finance"],"category_id":"52544965f71e87d0070000df"},{"score":{"master":0.5,"detail":{"identifier":1}},"type":{"primary":"digital"},"amount":51.22,"date":"2014-01-07","name":"Seamless","meta":{"location":{},"contact":{"website":"seamless.com"}},"_account":"52db1be4be13cbc36e000004","_id":"52db1be6be13cbc36e00007e","_entity":"51df0152e52532e03b000002"},{"score":{"master":0.5,"detail":{"identifier":1,"website":1}},"type":{"primary":"digital"},"amount":24.04,"date":"2014-01-04","name":"Amazon","meta":{"location":{},"contact":{"website":"amazon.com"}},"_account":"52db1be4be13cbc36e000004","_id":"52db1be7be13cbc36e0000af","_entity":"51df0130e52532e03b000001"},{"score":{"master":1,"detail":{"zip":1,"name":1,"state":1,"city":1,"address":1}},"type":{"primary":"place"},"amount":3.5,"date":"2014-01-08","name":"Capital One 360 Café","meta":{"location":{"coordinates":{"lng":-122.40372312029795,"lat":37.7888611347371},"zip":"94108","state":"CA","city":"San Francisco","address":"101 Post St"},"contact":{"telephone":"4152484920"},"ids":{"foursquare":"4d87c47c0c422d436a43ee30","factual":"2a04d84d-25ef-4bad-9603-9b333cc4e35b"}},"_account":"52db1be4be13cbc36e000004","_id":"52db1bebbe13cbc36e000100","_entity":"52a553acbdcc808903004b30","category":["Food & Drink","Restaurants","Cafe"],"category_id":"52544965f71e87d007000059"},{"score":{"master":1,"detail":{"zip":1,"name":1,"state":1,"city":1,"address":1}},"type":{"primary":"unresolved"},"amount":10.7,"date":"2014-01-12","name":"Uber","meta":{"location":{"zip":"94105","state":"CA","city":"San Francisco","address":"182 Howard Street"}},"_account":"52db1be4be13cbc36e000005","_id":"52db1be9be13cbc36e0000d9","_entity":"5294a976b71800e809000016","category":["Travel"],"category_id":"52544965f71e87d0070001b8"},{"score":{"master":1,"detail":{"zip":1,"name":1,"state":1,"city":1,"address":1}},"type":{"primary":"unresolved"},"amount":11.56,"date":"2014-01-15","name":"Uber","meta":{"location":{"zip":"94105","state":"CA","city":"San Francisco","address":"182 Howard Street"}},"_account":"52db1be4be13cbc36e000005","_id":"52db1beabe13cbc36e0000e1","_entity":"5294a976b71800e809000016","category":["Travel"],"category_id":"52544965f71e87d0070001b8"},{"score":{"master":1,"detail":{"zip":1,"name":1,"state":1,"city":1,"address":1}},"type":{"primary":"place"},"amount":29.85,"date":"2014-01-06","name":"Starbucks","meta":{"location":{"coordinates":{"lng":-122.40341336071333,"lat":37.7873326351124},"zip":"94103","state":"CA","city":"San Francisco","address":"7 3rd St"},"contact":{"telephone":"4159799530"},"ids":{"foursquare":"4a7324d9f964a520aadb1fe3","factual":"6ac4ea59-397d-498a-9d10-e4dc2cda6cac"}},"_account":"52db1be4be13cbc36e000004","_id":"52db1bebbe13cbc36e0000fa","_entity":"526847885f23a60b0e00041c","category":["Food & Drink","Restaurants","Coffee Shop"],"category_id":"52544965f71e87d00700005d"},{"score":{"master":1,"detail":{"zip":1,"name":1,"state":1,"city":1,"address":1}},"type":{"primary":"place"},"amount":600,"date":"2013-12-19","name":"Umami","meta":{"location":{"coordinates":{"lng":-122.43374347686768,"lat":37.79774659682308},"zip":"94123","state":"CA","city":"San Francisco","address":"2909 Webster St"},"contact":{"telephone":"4153463431"},"ids":{"foursquare":"4a0e428cf964a520da751fe3"}},"_account":"52db1be4be13cbc36e000004","_id":"52db1be9be13cbc36e0000df","_entity":"52684c615f23a60b0e002b15","category":["Food & Drink","Restaurants","Asian"],"category_id":"52544965f71e87d007000050"},{"score":{"master":1,"detail":{"zip":1,"name":1,"state":1,"city":1,"address":1}},"type":{"primary":"unresolved"},"amount":129.64,"date":"2014-01-15","name":"Urbanoutfitterscom Lp","meta":{"location":{"zip":"19112","state":"PA","city":"Philadelphia","address":"5000 S Broad St"}},"_account":"52db1be4be13cbc36e000004","_id":"52db1be8be13cbc36e0000d5","_entity":"526848e85f23a60b0e000cd5","category":["Shops","Digital Purchase"],"category_id":"52544965f71e87d007000193"},{"score":{"master":1,"detail":{"zip":1,"name":1,"state":1,"city":1,"address":1}},"type":{"primary":"unresolved"},"amount":75.1,"date":"2014-01-09","name":"Online Payment Processed","meta":{"location":{"zip":"94110","state":"CA","city":"San Francisco","address":"# 100"}},"_account":"52db1be4be13cbc36e000004","_id":"52db1bebbe13cbc36e000107","_entity":"52d46dcee8bb7c7c3b008269","category":["Professional","Internet Services"],"category_id":"52544965f71e87d007000119"},{"score":{"master":1,"detail":{"zip":1,"name":1,"state":1,"city":1,"address":1}},"type":{"primary":"unresolved"},"amount":12.52,"date":"2014-01-14","name":"Uber","meta":{"location":{"zip":"94105","state":"CA","city":"San Francisco","address":"182 Howard Street"}},"_account":"52db1be4be13cbc36e000005","_id":"52db1beabe13cbc36e0000e3","_entity":"5294a976b71800e809000016","category":["Travel"],"category_id":"52544965f71e87d0070001b8"},{"score":{"master":1,"detail":{"zip":1,"name":1,"state":1,"city":1,"address":1}},"type":{"primary":"unresolved"},"amount":-59.14,"date":"2014-01-14","name":"Urbanoutfitterscom Lp","meta":{"location":{"zip":"19112","state":"PA","city":"Philadelphia","address":"5000 S Broad St"}},"_account":"52db1be4be13cbc36e000004","_id":"52db1beabe13cbc36e0000e5","_entity":"526848e85f23a60b0e000cd5","category":["Shops","Digital Purchase"],"category_id":"52544965f71e87d007000193"},{"score":{"master":0.5,"detail":{"identifier":1,"website":1}},"type":{"primary":"digital"},"amount":25.49,"date":"2014-01-03","name":"Amazon","meta":{"location":{},"contact":{"website":"amazon.com"}},"_account":"52db1be4be13cbc36e000004","_id":"52db1be7be13cbc36e0000a5","_entity":"51df0130e52532e03b000001"},{"score":{"master":1,"detail":{"zip":1,"name":1,"state":1,"city":1,"address":1}},"type":{"primary":"unresolved"},"amount":346.26,"date":"2014-01-16","name":"Urbanoutfitterscom Lp","meta":{"location":{"zip":"19112","state":"PA","city":"Philadelphia","address":"5000 S Broad St"}},"_account":"52db1be4be13cbc36e000004","_id":"52db1bebbe13cbc36e000102","_entity":"526848e85f23a60b0e000cd5","category":["Shops","Digital Purchase"],"category_id":"52544965f71e87d007000193"},{"score":{"master":0.96667,"detail":{"zip":1,"name":0.3333333333333333,"state":1,"city":1,"address":1}},"type":{"primary":"place"},"amount":35.45,"date":"2014-01-12","name":"Mayes Oyster and Steak House","meta":{"location":{"coordinates":{"lng":-122.42027180518197,"lat":37.78830541267099},"zip":"94109","state":"CA","city":"San Francisco","address":"1233 Polk St"},"contact":{"telephone":"4154747674"},"ids":{"foursquare":"4afb7c6df964a5204d1e22e3"}},"_account":"52db1be4be13cbc36e000005","_id":"52db1be9be13cbc36e0000db","_entity":"5272bee03429c3f11000bea5","category":["Food & Drink","Restaurants","American"],"category_id":"52544965f71e87d00700004f"},{"score":{"master":0.5,"detail":{"identifier":1}},"type":{"primary":"special"},"amount":-2101.53,"date":"2014-01-15","name":"Online Credit Card Payment","meta":{"location":{}},"_account":"52db1be4be13cbc36e000005","_id":"52db1be7be13cbc36e0000b6","_entity":"51df2f4f364351e13d00000a"},{"score":{"master":0.5,"detail":{"identifier":1,"website":1}},"type":{"primary":"digital"},"amount":46.75,"date":"2014-01-13","name":"Amazon","meta":{"location":{},"contact":{"website":"amazon.com"}},"_account":"52db1be4be13cbc36e000005","_id":"52db1be7be13cbc36e0000a2","_entity":"51df0130e52532e03b000001"},{"score":{"master":0.5,"detail":{"identifier":1}},"type":{"primary":"special"},"amount":-800,"date":"2014-01-13","name":"Online Credit Card Payment","meta":{"location":{}},"_account":"52db1be4be13cbc36e000005","_id":"52db1be7be13cbc36e00009f","_entity":"51df2f4f364351e13d00000a"},{"score":{"master":1,"detail":{"zip":1,"name":1,"state":1,"city":1,"address":1}},"type":{"primary":"place"},"amount":12.96,"date":"2014-01-16","name":"Galette 88","meta":{"location":{"coordinates":{"lng":-122.40363836288452,"lat":37.79031975640008},"zip":"94108","state":"CA","city":"San Francisco","address":"88 Hardie Pl"},"contact":{"telephone":"4159892222"},"ids":{"foursquare":"4edadafe6d869ce1d11cce2e"}},"_account":"52db1be4be13cbc36e000005","_id":"52db1beabe13cbc36e0000e8","_entity":"52ae45270ae6dce65e009479","category":["Food & Drink","Restaurants","French"],"category_id":"52544965f71e87d00700006c"},{"score":{"master":1,"detail":{"zip":1,"name":1,"state":1,"city":1,"address":1}},"type":{"primary":"unresolved"},"amount":175.49,"date":"2014-01-04","name":"Curtain Works","meta":{"location":{"zip":"28217","state":"NC","city":"Charlotte","address":"Ste 400"}},"_account":"52db1be4be13cbc36e000004","_id":"52db1bebbe13cbc36e0000f5","_entity":"52c9ba92ec558faf5f01ab84","category":["Shops"],"category_id":"52544965f71e87d007000170"},{"score":{"master":1,"detail":{"zip":1,"name":1,"state":1,"city":1,"address":1}},"type":{"primary":"unresolved"},"amount":11.42,"date":"2014-01-14","name":"Sushirrito","meta":{"location":{"zip":"94108","state":"CA","city":"San Francisco","address":"226 Kearny St"},"ids":{"foursquare":"5169c1b4498eb65b81bd735a"}},"_account":"52db1be4be13cbc36e000005","_id":"52db1bebbe13cbc36e0000f2","_entity":"526847945f23a60b0e000707","category":["Food & Drink","Restaurants","Sushi"],"category_id":"52544965f71e87d007000082"},{"score":{"master":1,"detail":{"zip":1,"name":1,"state":1,"city":1,"address":1}},"type":{"primary":"unresolved"},"amount":22.74,"date":"2014-01-10","name":"Rouge Nightclub Inc","meta":{"location":{"zip":"94107","state":"CA","city":"San Francisco","address":"715 Harrison St"}},"_account":"52db1be4be13cbc36e000005","_id":"52db1bebbe13cbc36e000112","_entity":"526847955f23a60b0e000761","category":["Food & Drink","Restaurants"],"category_id":"52544965f71e87d00700004c"},{"score":{"master":0.5,"detail":{"identifier":1,"website":1}},"type":{"primary":"digital"},"amount":112.17,"date":"2014-01-14","name":"Amazon","meta":{"location":{},"contact":{"website":"amazon.com"}},"_account":"52db1be4be13cbc36e000005","_id":"52db1be7be13cbc36e0000cc","_entity":"51df0130e52532e03b000001"},{"score":{"master":0.5,"detail":{"identifier":1,"website":1}},"type":{"primary":"digital","secondary":"unresolved"},"amount":0.8,"date":"2014-01-04","name":"AMAZON WEB SERVICES","meta":{"location":{},"contact":{"website":"amazon.co"}},"_account":"52db1be4be13cbc36e000005","_id":"52db1be7be13cbc36e0000ce","_entity":"526847775f23a60b0e00017b","category":["Miscellaneous"],"category_id":"52544965f71e87d007000088"},{"score":{"master":1,"detail":{"zip":1,"name":1,"state":1,"city":1,"address":1}},"type":{"primary":"place"},"amount":9.67,"date":"2014-01-06","name":"Bread and Cocoa","meta":{"location":{"coordinates":{"lng":-122.40359544754028,"lat":37.789709297957295},"zip":"94104","state":"CA","city":"San Francisco","address":"199 Sutter St"},"contact":{"telephone":"4159567200"},"ids":{"foursquare":"49e6c22df964a52069641fe3"}},"_account":"52db1be4be13cbc36e000005","_id":"52db1bebbe13cbc36e0000ef","_entity":"526847815f23a60b0e000313","category":["Food & Drink","Restaurants","Coffee Shop"],"category_id":"52544965f71e87d00700005d"},{"score":{"master":0.5,"detail":{"identifier":1}},"type":{"primary":"digital"},"amount":2.99,"date":"2014-01-06","name":"Amazon Digital Downloads","meta":{"location":{},"contact":{"website":"amazon.com"}},"_account":"52db1be4be13cbc36e000005","_id":"52db1be7be13cbc36e0000a6","_entity":"51df0af8e52532e03b000004"},{"score":{"master":1,"detail":{"zip":1,"name":1,"state":1,"city":1,"address":1}},"type":{"primary":"place"},"amount":50,"date":"2014-01-09","name":"Lolinda","meta":{"location":{"coordinates":{"lng":-122.41880893707274,"lat":37.756804912698485},"zip":"94110","state":"CA","city":"San Francisco","address":"2518 Mission St"},"contact":{"telephone":"4155506970"},"ids":{"foursquare":"50243fd229a61e4b21a26e16"}},"_account":"52db1be4be13cbc36e000005","_id":"52db1be8be13cbc36e0000d3","_entity":"52a980d454dd694709000215","category":["Food & Drink","Restaurants","Steakhouses"],"category_id":"52544965f71e87d007000081"},{"score":{"master":1,"detail":{"zip":1,"name":1,"state":1,"city":1,"address":1}},"type":{"primary":"unresolved"},"amount":52.28,"date":"2014-01-03","name":"Blowfish","meta":{"location":{"zip":"94110","state":"CA","city":"San Francisco","address":"2170 Bryant St"}},"_account":"52db1be4be13cbc36e000005","_id":"52db1bebbe13cbc36e0000f4","_entity":"529048c708e4eabe44007b5d","category":["Food & Drink","Restaurants"],"category_id":"52544965f71e87d00700004c"},{"score":{"master":1,"detail":{"zip":1,"name":1,"state":1,"city":1,"address":1}},"type":{"primary":"place"},"amount":12.33,"date":"2014-01-09","name":"Tropisueño","meta":{"location":{"coordinates":{"lng":-122.40393340587616,"lat":37.78534267732514},"zip":"94103","state":"CA","city":"San Francisco","address":"75 Yerba Buena Ln"},"contact":{"telephone":"4152430299"},"ids":{"foursquare":"4a5f8994f964a520d5bf1fe3"}},"_account":"52db1be4be13cbc36e000005","_id":"52db1bebbe13cbc36e0000ee","_entity":"526847945f23a60b0e000714","category":["Food & Drink","Restaurants","Mexican"],"category_id":"52544965f71e87d007000079"},{"score":{"master":1,"detail":{"zip":1,"name":1,"state":1,"city":1,"address":1}},"type":{"primary":"place"},"amount":9.3,"date":"2014-01-07","name":"Chipotle Mexican Grill","meta":{"location":{"coordinates":{"lng":-122.40385587412636,"lat":37.7898142010025},"zip":"94108","state":"CA","city":"San Francisco","address":"211 Sutter St"},"contact":{"telephone":"4155904199"},"ids":{"foursquare":"50a40b4c498ef6257de3eb6a","factual":"93ecb774-185d-46a3-a17e-aaa1dfc421c4"}},"_account":"52db1be4be13cbc36e000005","_id":"52db1bebbe13cbc36e0000f8","_entity":"526847775f23a60b0e00014d","category":["Food & Drink","Restaurants","Mexican"],"category_id":"52544965f71e87d007000079"},{"score":{"master":1,"detail":{"zip":1,"name":1,"state":1,"city":1,"address":1}},"type":{"primary":"place"},"amount":50.11,"date":"2014-01-03","name":"Safeway","meta":{"location":{"coordinates":{"lng":-122.43288516998291,"lat":37.8045623549303},"zip":"94123","state":"CA","city":"San Francisco","address":"15 Marina Blvd"},"contact":{"telephone":"4155634946"},"ids":{"foursquare":"4a5931a2f964a520f0b81fe3"}},"_account":"52db1be4be13cbc36e000005","_id":"52db1be8be13cbc36e0000d4","_entity":"5272beb53429c3f11000b6a3","category":["Shops","Supermarkets and Groceries"],"category_id":"52544965f71e87d0070001b1"},{"score":{"master":1,"detail":{"zip":1,"name":1,"state":1,"city":1,"address":1}},"type":{"primary":"unresolved"},"amount":16,"date":"2013-12-29","name":"Vero Westside","meta":{"location":{"zip":"95448","state":"CA","city":"Healdsburg","address":"6050 Westside Rd"}},"_account":"52db1be4be13cbc36e000005","_id":"52db1bebbe13cbc36e0000f0","_entity":"52c2cfc5590084f05f018796","category":["Shops","Supermarkets and Groceries"],"category_id":"52544965f71e87d0070001b1"},{"score":{"master":1,"detail":{"zip":1,"name":1,"state":1,"city":1,"address":1}},"type":{"primary":"unresolved"},"amount":10,"date":"2014-01-01","name":"Uber","meta":{"location":{"zip":"94105","state":"CA","city":"San Francisco","address":"182 Howard Street"}},"_account":"52db1be4be13cbc36e000005","_id":"52db1bebbe13cbc36e0000fc","_entity":"5294a976b71800e809000016","category":["Travel"],"category_id":"52544965f71e87d0070001b8"},{"score":{"master":1,"detail":{"zip":1,"name":1,"state":1,"city":1,"address":1}},"type":{"primary":"unresolved"},"amount":11.25,"date":"2014-01-04","name":"Bovine Bakery Pt. Reyes","meta":{"location":{"zip":"94956","state":"POINT REYES STATION","city":"Ca","address":"Pt Reyes Station"}},"_account":"52db1be4be13cbc36e000005","_id":"52db1beabe13cbc36e0000e9","_entity":"52a1042dc84b48ea010016db","category":["Shops","Supermarkets and Groceries"],"category_id":"52544965f71e87d0070001b1"},{"score":{"master":1,"detail":{"zip":1,"name":1,"state":1,"city":1,"address":1}},"type":{"primary":"unresolved"},"amount":33.3,"date":"2013-12-30","name":"Online Payment Processed","meta":{"location":{"zip":"94110","state":"CA","city":"San Francisco","address":"# 100"}},"_account":"52db1be4be13cbc36e000005","_id":"52db1beabe13cbc36e0000e6","_entity":"52d46dcee8bb7c7c3b008269","category":["Professional","Internet Services"],"category_id":"52544965f71e87d007000119"},{"score":{"master":0.5,"detail":{"identifier":1,"website":1}},"type":{"primary":"digital","secondary":"unresolved"},"amount":0.58,"date":"2014-01-04","name":"AMAZON WEB SERVICES","meta":{"location":{},"contact":{"website":"amazon.co"}},"_account":"52db1be4be13cbc36e000005","_id":"52db1be7be13cbc36e0000b3","_entity":"526847775f23a60b0e00017b","category":["Miscellaneous"],"category_id":"52544965f71e87d007000088"},{"score":{"master":1,"detail":{"zip":1,"name":1,"state":1,"city":1,"address":1}},"type":{"primary":"unresolved"},"amount":72.11,"date":"2013-12-31","name":"Safeway 1206","meta":{"location":{"zip":"94133","state":"CA","city":"San Francisco","address":"Ste 6"}},"_account":"52db1be4be13cbc36e000005","_id":"52db1bebbe13cbc36e0000fe","_entity":"52684e305f23a60b0e0077c3","category":["Shops","Supermarkets and Groceries"],"category_id":"52544965f71e87d0070001b1"},{"score":{"master":1,"detail":{"zip":1,"name":1,"state":1,"city":1,"address":1}},"type":{"primary":"unresolved"},"amount":15.02,"date":"2014-01-03","name":"Chevron Usa","meta":{"location":{"zip":"94520","state":"CA","city":"Concord","address":"2003 Diamond Blvd"}},"_account":"52db1be4be13cbc36e000005","_id":"52db1bebbe13cbc36e000110","_entity":"5268478c5f23a60b0e000527","category":["Travel","Gas Stations"],"category_id":"52544965f71e87d0070001c0"},{"score":{"master":0.5,"detail":{"identifier":1,"website":1}},"type":{"primary":"digital","secondary":"unresolved"},"amount":4.88,"date":"2013-12-30","name":"GOOGLE CHECKOUT SELLER","meta":{"location":{},"contact":{"website":"supermgoogle.com"}},"_account":"52db1be4be13cbc36e000005","_id":"52db1be7be13cbc36e0000a3","_entity":"52a55227062d0fad200048ae","category":["Professional","Internet Services"],"category_id":"52544965f71e87d007000119"},{"score":{"master":1,"detail":{"zip":1,"name":1,"state":1,"city":1,"address":1}},"type":{"primary":"place"},"amount":100.83,"date":"2014-01-03","name":"Hops & Hominy","meta":{"location":{"coordinates":{"lng":-122.40572547274216,"lat":37.78931076807203},"zip":"94108","state":"CA","city":"San Francisco","address":"1 Tillman Pl"},"contact":{"telephone":"4153736341"},"ids":{"foursquare":"4ed9a975be7be28336ddc111"}},"_account":"52db1be4be13cbc36e000005","_id":"52db1be9be13cbc36e0000dc","_entity":"526847885f23a60b0e000413","category":["Food & Drink","Restaurants","American"],"category_id":"52544965f71e87d00700004f"},{"score":{"master":1,"detail":{"zip":1,"name":1,"state":1,"city":1,"address":1}},"type":{"primary":"place"},"amount":10,"date":"2013-12-29","name":"Porter Creek Winery","meta":{"location":{"coordinates":{"lng":-122.89016760129537,"lat":38.521034405303894},"zip":"95448","state":"CA","city":"Healdsburg","address":"8735 Westside Rd"},"contact":{"telephone":"7074336321"},"ids":{"foursquare":"4b661136f964a520cb112be3","factual":"4f0034b2-1bb6-4e91-93e8-519d6d570495"}},"_account":"52db1be4be13cbc36e000005","_id":"52db1bebbe13cbc36e000101","_entity":"52c2cfab590084f05f0185b6","category":["Food & Drink","Restaurants","Winery"],"category_id":"52544965f71e87d007000087"},{"score":{"master":0.5,"detail":{"identifier":1}},"type":{"primary":"special"},"amount":-400,"date":"2014-01-02","name":"Online Credit Card Payment","meta":{"location":{}},"_account":"52db1be4be13cbc36e000005","_id":"52db1be7be13cbc36e0000b2","_entity":"51df2f4f364351e13d00000a"},{"score":{"master":1,"detail":{"zip":1,"name":1,"state":1,"city":1,"address":1}},"type":{"primary":"unresolved"},"amount":10.66,"date":"2013-12-26","name":"Wilco Food Mart 357","meta":{"location":{"zip":"28166","state":"NC","city":"Troutman","address":"1006 Charlotte Hwy"}},"_account":"52db1be4be13cbc36e000005","_id":"52db1bebbe13cbc36e0000f7","_entity":"52bed9b710b439a912005644","category":["Travel","Gas Stations"],"category_id":"52544965f71e87d0070001c0"},{"score":{"master":0.5,"detail":{"identifier":1,"website":1}},"type":{"primary":"digital"},"amount":52.76,"date":"2013-12-26","name":"Amazon","meta":{"location":{},"contact":{"website":"amazon.com"}},"_account":"52db1be4be13cbc36e000005","_id":"52db1be7be13cbc36e00009e","_entity":"51df0130e52532e03b000001"},{"score":{"master":1,"detail":{"zip":1,"name":1,"state":1,"city":1,"address":1}},"type":{"primary":"place"},"amount":70.14,"date":"2014-01-03","name":"Sports Basement","meta":{"location":{"coordinates":{"lng":-122.41096,"lat":37.767054},"zip":"94103","state":"CA","city":"San Francisco","address":"1590 Bryant St"},"contact":{"telephone":"4155753000"},"ids":{"foursquare":"4a09ef9af964a52070741fe3","factual":"10930fc3-d54e-4dc0-84ed-f8ce95d2fefd"}},"_account":"52db1be4be13cbc36e000005","_id":"52db1bebbe13cbc36e000115","_entity":"529048ce17c7425b3b00fb63","category":["Shops","Sporting Goods"],"category_id":"52544965f71e87d0070001b0"},{"score":{"master":1,"detail":{"zip":1,"name":1,"state":1,"city":1,"address":1}},"type":{"primary":"unresolved"},"amount":47,"date":"2013-12-27","name":"Laurienzo Brick Oven","meta":{"location":{"zip":"21771","state":"MYERSVILLE","city":"Md","address":"Mount Airy"}},"_account":"52db1be4be13cbc36e000005","_id":"52db1bebbe13cbc36e0000ff","_entity":"52c07fe610b439a91200ae65","category":["Food & Drink","Restaurants"],"category_id":"52544965f71e87d00700004c"},{"score":{"master":1,"detail":{"zip":1,"name":1,"state":1,"city":1,"address":1}},"type":{"primary":"place"},"amount":35.46,"date":"2013-12-29","name":"Cheese Plus","meta":{"location":{"coordinates":{"lng":-122.421783,"lat":37.795058},"zip":"94109","state":"CA","city":"San Francisco","address":"2001 Polk St"},"contact":{"telephone":"4159212001"},"ids":{"foursquare":"4a222e61f964a520677d1fe3"}},"_account":"52db1be4be13cbc36e000005","_id":"52db1beabe13cbc36e0000eb","_entity":"52ae45246dd4e787270033b3","category":["Shops","Food and Beverage Store","Specialty"],"category_id":"52544965f71e87d00700019d"},{"score":{"master":1,"detail":{"zip":1,"name":1,"state":1,"city":1,"address":1}},"type":{"primary":"place"},"amount":40.05,"date":"2013-12-27","name":"Mosaic","meta":{"location":{"coordinates":{"lng":-76.60696364892934,"lat":39.28950572222763},"zip":"21202","state":"MD","city":"Baltimore","address":"4 Market Pl"},"contact":{"telephone":"4102628713"},"ids":{"foursquare":"4b2315cef964a5201e5324e3"}},"_account":"52db1be4be13cbc36e000005","_id":"52db1be8be13cbc36e0000d1","_entity":"52d2bce0e8bb7c7c3b000a96","category":["Food & Drink","Nightlife","Night Clubs"],"category_id":"52544965f71e87d007000048"},{"score":{"master":1,"detail":{"zip":1,"name":1,"state":1,"city":1,"address":1}},"type":{"primary":"place"},"amount":17.42,"date":"2013-12-27","name":"Brewer's Alley","meta":{"location":{"coordinates":{"lng":-77.41064750324045,"lat":39.41609008056981},"zip":"21701","state":"MD","city":"Frederick","address":"124 N Market St"},"contact":{"telephone":"3016310089"},"ids":{"foursquare":"4ab3b494f964a520136e20e3","factual":"174c0d71-c905-4f7c-a07e-90718621006d"}},"_account":"52db1be4be13cbc36e000005","_id":"52db1be9be13cbc36e0000da","_entity":"52c08001590084f05f00ad1e","category":["Food & Drink","Breweries"],"category_id":"52544965f71e87d007000041"},{"score":{"master":1,"detail":{"zip":1,"name":0.94,"state":1,"city":1,"address":1}},"type":{"primary":"unresolved"},"amount":4.55,"date":"2013-12-26","name":"Starbucks B #152","meta":{"location":{"zip":"28208","state":"NC","city":"Charlotte","address":"5501 Josh Birmingham Pkwy"}},"_account":"52db1be4be13cbc36e000005","_id":"52db1bebbe13cbc36e0000fd","_entity":"52684e025f23a60b0e0070f7","category":["Food & Drink","Nightlife","Bar"],"category_id":"52544965f71e87d007000044"},{"score":{"master":1,"detail":{"zip":1,"name":1,"state":1,"city":1,"address":1}},"type":{"primary":"place"},"amount":12,"date":"2013-12-28","name":"Pickles Pub","meta":{"location":{"coordinates":{"lng":-76.62269711494446,"lat":39.285378238756444},"zip":"21230","state":"MD","city":"Baltimore","address":"520 Washington Blvd"},"contact":{"telephone":"4107521784"},"ids":{"foursquare":"4ab444edf964a520a97020e3","factual":"5e0aca04-6843-4639-ad82-54ffc0d36cb3"}},"_account":"52db1be4be13cbc36e000005","_id":"52db1bebbe13cbc36e0000f6","_entity":"52c08009590084f05f00ae2c","category":["Food & Drink","Nightlife","Bar"],"category_id":"52544965f71e87d007000044"},{"score":{"master":0.5,"detail":{"identifier":1,"website":1}},"type":{"primary":"digital"},"amount":10,"date":"2013-12-26","name":"Amazon","meta":{"location":{},"contact":{"website":"amazon.com"}},"_account":"52db1be4be13cbc36e000005","_id":"52db1be7be13cbc36e0000a8","_entity":"51df0130e52532e03b000001"},{"score":{"master":1,"detail":{"zip":1,"name":1,"state":1,"city":1,"address":1}},"type":{"primary":"place"},"amount":54,"date":"2013-12-27","name":"The Corner Bistro & Winebar","meta":{"location":{"coordinates":{"lng":-76.62582365723517,"lat":39.285605663839426},"zip":"21230","state":"MD","city":"Baltimore","address":"213 Penn St"},"contact":{"telephone":"4107271155"},"ids":{"foursquare":"4e6fe217b9935ff0b50def7c","factual":"1bce75d1-b6bb-433b-94cc-2a2fae8ca084"}},"_account":"52db1be4be13cbc36e000005","_id":"52db1bebbe13cbc36e00010d","_entity":"52db180352d559616e00012b","category":["Food & Drink","Restaurants","Winery"],"category_id":"52544965f71e87d007000087"},{"score":{"master":0.5,"detail":{"identifier":1,"website":1}},"type":{"primary":"digital","secondary":"unresolved"},"amount":4.35,"date":"2013-12-30","name":"GOOGLE CHECKOUT SELLER","meta":{"location":{},"contact":{"website":"cogoogle.com"}},"_account":"52db1be4be13cbc36e000005","_id":"52db1be7be13cbc36e0000cd","_entity":"526847825f23a60b0e000387","category":["Professional","Internet Services"],"category_id":"52544965f71e87d007000119"},{"score":{"master":1,"detail":{"zip":1,"name":1,"state":1,"city":1,"address":1}},"type":{"primary":"unresolved"},"amount":40,"date":"2013-12-29","name":"Online Payment Processed","meta":{"location":{"zip":"94110","state":"CA","city":"San Francisco","address":"# 100"}},"_account":"52db1be4be13cbc36e000005","_id":"52db1beabe13cbc36e0000e4","_entity":"52d46dcee8bb7c7c3b008269","category":["Professional","Internet Services"],"category_id":"52544965f71e87d007000119"},{"score":{"master":1,"detail":{"zip":1,"name":1,"state":1,"city":1,"address":1}},"type":{"primary":"place"},"amount":33.97,"date":"2013-12-27","name":"Sheetz","meta":{"location":{"coordinates":{"lng":-77.387792,"lat":39.407061},"zip":"21701","state":"MD","city":"Frederick","address":"1300 E Patrick St"},"contact":{"telephone":"3016315200"},"ids":{"foursquare":"4b40febff964a520f8be25e3","factual":"c26279c0-d71c-48d6-9994-56a0272b45c9"}},"_account":"52db1be4be13cbc36e000005","_id":"52db1bebbe13cbc36e00010a","_entity":"52c07ff110b439a91200aef2","category":["Travel","Gas Stations"],"category_id":"52544965f71e87d0070001c0"},{"score":{"master":1,"detail":{"zip":1,"name":1,"state":1,"city":1,"address":1}},"type":{"primary":"unresolved"},"amount":140,"date":"2013-12-25","name":"Olympic Meats","meta":{"location":{"zip":"97209","state":"OR","city":"Portland","address":"#132"}},"_account":"52db1be4be13cbc36e000005","_id":"52db1bebbe13cbc36e0000f9","_entity":"52bc3728d6da4e7c0b005a9d","category":["Shops","Supermarkets and Groceries"],"category_id":"52544965f71e87d0070001b1"},{"score":{"master":1,"detail":{"zip":1,"name":1,"state":1,"city":1,"address":1}},"type":{"primary":"place"},"amount":37.43,"date":"2013-12-24","name":"Fresh Market The","meta":{"location":{"coordinates":{"lng":-80.31173,"lat":36.115811},"zip":"27106","state":"NC","city":"Winston Salem","address":"3285 Robinhood Rd"},"contact":{"telephone":"(336) 760-2519"},"ids":{"factual":"1a0e253e-d97c-4420-ab47-120b977876ce"}},"_account":"52db1be4be13cbc36e000005","_id":"52db1bebbe13cbc36e000104","_entity":"52bc3757d6da4e7c0b005c24","category":["Shops","Supermarkets and Groceries"],"category_id":"52544965f71e87d0070001b1"},{"score":{"master":1,"detail":{"zip":1,"name":1,"state":1,"city":1,"address":1}},"type":{"primary":"place"},"amount":150,"date":"2013-12-24","name":"The Spa at Highland Oaks","meta":{"location":{"coordinates":{"lng":-80.30215623738016,"lat":36.05963070139284},"zip":"27103","state":"NC","city":"Winston Salem","address":"765 Highland Oaks Dr, Ste 150"},"ids":{"foursquare":"4ceab2bde888f04d7e974e6b","factual":"4db980c2-72f8-4f55-a82f-4b6bf1031a01"}},"_account":"52db1be4be13cbc36e000005","_id":"52db1be8be13cbc36e0000d2","_entity":"52bc3710fd90ebfd53005f01","category":["Service","Personal Care","Spas"],"category_id":"52544965f71e87d007000153"},{"score":{"master":0},"type":{"primary":"unresolved"},"amount":-0.01,"date":"2013-12-23","name":"","meta":{"location":{}},"_account":"52db1be4be13cbc36e000005","_id":"52db1bebbe13cbc36e000117","_entity":"52db1be7be13cbc36e0000c4","category":["Fees & Payments"],"category_id":"52544965f71e87d007000040"},{"score":{"master":0.5,"detail":{"identifier":1}},"type":{"primary":"digital"},"amount":5.99,"date":"2013-12-23","name":"Amazon Digital Downloads","meta":{"location":{},"contact":{"website":"amazon.com"}},"_account":"52db1be4be13cbc36e000005","_id":"52db1be7be13cbc36e0000cf","_entity":"51df0af8e52532e03b000004"},{"score":{"master":1,"detail":{"zip":1,"name":1,"state":1,"city":1,"address":1}},"type":{"primary":"unresolved"},"amount":25,"date":"2013-12-25","name":"Us Airways Web Sales","meta":{"location":{"zip":"85034","state":"AZ","city":"Phoenix","address":"4000 E Sky Harbor Blvd"}},"_account":"52db1be4be13cbc36e000005","_id":"52db1be9be13cbc36e0000dd","_entity":"52684be85f23a60b0e001722","category":["Travel","Airlines and Aviation Services"],"category_id":"52544965f71e87d0070001b9"},{"score":{"master":1,"detail":{"zip":1,"name":1,"state":1,"city":1,"address":1}},"type":{"primary":"unresolved"},"amount":21.48,"date":"2013-12-24","name":"Barnes & Noble 2761","meta":{"location":{"zip":"27103","state":"NC","city":"Winston Salem","address":"1925 Hampton Inn Ct"}},"_account":"52db1be4be13cbc36e000005","_id":"52db1bebbe13cbc36e00010c","_entity":"52bc3746fd90ebfd53005f69","category":["Shops","Bookstores"],"category_id":"52544965f71e87d00700017e"},{"score":{"master":1,"detail":{"zip":1,"name":1,"state":1,"city":1,"address":1}},"type":{"primary":"place"},"amount":25,"date":"2013-12-22","name":"Schoolhouse Electric & Supply Co.","meta":{"location":{"coordinates":{"lng":-122.69696420281844,"lat":45.54129868720819},"zip":"97210","state":"OR","city":"Portland","address":"2181 NW Nicolai St, Portland, OR 97210"},"contact":{"telephone":"5032307082"},"ids":{"foursquare":"4ec84d6d9a52756c56b97c5f","factual":"d05199f8-a77c-44de-a9a3-d0c935c6c3fa"}},"_account":"52db1be4be13cbc36e000005","_id":"52db1beabe13cbc36e0000e7","_entity":"52b5a4122c9e708730001d08","category":["Shops","Department Stores"],"category_id":"52544965f71e87d007000192"},{"score":{"master":0.5,"detail":{"identifier":1}},"type":{"primary":"digital"},"amount":1.99,"date":"2013-12-23","name":"Amazon Digital Downloads","meta":{"location":{},"contact":{"website":"amazon.com"}},"_account":"52db1be4be13cbc36e000005","_id":"52db1be7be13cbc36e0000a1","_entity":"51df0af8e52532e03b000004"},{"score":{"master":0.5,"detail":{"identifier":1}},"type":{"primary":"special"},"amount":20.25,"date":"2013-12-23","name":"Square Transaction","meta":{"location":{}},"_account":"52db1be4be13cbc36e000005","_id":"52db1be7be13cbc36e0000ad","_entity":"51df2f3d364351e13d000009"},{"score":{"master":1,"detail":{"zip":1,"name":1,"state":1,"city":1,"address":1}},"type":{"primary":"unresolved"},"amount":17.04,"date":"2013-12-22","name":"William Sonoma","meta":{"location":{"zip":"27103","state":"NC","city":"Winston Salem","address":"3320 Silas Creek Pkwy"}},"_account":"52db1be4be13cbc36e000005","_id":"52db1bebbe13cbc36e0000ed","_entity":"52b993b9d6da4e7c0b00030a","category":["Shops","Furniture and Home Decor"],"category_id":"52544965f71e87d00700019e"},{"score":{"master":0.5,"detail":{"identifier":1,"website":1}},"type":{"primary":"digital","secondary":"unresolved"},"amount":21.02,"date":"2013-12-30","name":"GOOGLE CHECKOUT SELLER","meta":{"location":{},"contact":{"website":"google.com"}},"_account":"52db1be4be13cbc36e000005","_id":"52db1be7be13cbc36e0000a0","_entity":"52cca015ec558faf5f030294","category":["Professional","Internet Services"],"category_id":"52544965f71e87d007000119"},{"score":{"master":1,"detail":{"zip":1,"name":1,"state":1,"city":1,"address":1}},"type":{"primary":"unresolved"},"amount":7.5,"date":"2013-12-22","name":"Delta Air Lines Inc.","meta":{"location":{"zip":"30320","state":"GA","city":"Atlanta","address":"Atlanta Airport"}},"_account":"52db1be4be13cbc36e000005","_id":"52db1bebbe13cbc36e000105","_entity":"52684d6f5f23a60b0e0057de","category":["Travel","Airlines and Aviation Services"],"category_id":"52544965f71e87d0070001b9"},{"score":{"master":1,"detail":{"zip":1,"name":1,"state":1,"city":1,"address":1}},"type":{"primary":"unresolved"},"amount":277.55,"date":"2013-12-22","name":"Great Outdoor Prvsn Co","meta":{"location":{"zip":"27103","state":"NC","city":"Winston Salem","address":"402 S Stratford Rd"}},"_account":"52db1be4be13cbc36e000005","_id":"52db1bebbe13cbc36e00010e","_entity":"52684f455f23a60b0e009812","category":["Shops","Sporting Goods"],"category_id":"52544965f71e87d0070001b0"},{"score":{"master":1,"detail":{"zip":1,"name":1,"state":1,"city":1,"address":1}},"type":{"primary":"unresolved"},"amount":96.1,"date":"2013-12-23","name":"Lsi Sonoma Rtl Wsj Wine","meta":{"location":{"zip":"06854","state":"CT","city":"Norwalk","address":"Ste 320"}},"_account":"52db1be4be13cbc36e000005","_id":"52db1beabe13cbc36e0000ea","_entity":"52a93c09d8511a177d007968","category":["Shops"],"category_id":"52544965f71e87d007000170"},{"score":{"master":1,"detail":{"zip":1,"name":1,"state":1,"city":1,"address":1}},"type":{"primary":"unresolved"},"amount":1.88,"date":"2013-12-22","name":"Kelly's Confections Inc","meta":{"location":{"zip":"27103","state":"NC","city":"Winston Salem","address":"3320 Silas Creek Pkwy"}},"_account":"52db1be4be13cbc36e000005","_id":"52db1bebbe13cbc36e000106","_entity":"52684e835f23a60b0e00855d","category":["Shops","Supermarkets and Groceries"],"category_id":"52544965f71e87d0070001b1"},{"score":{"master":1,"detail":{"zip":1,"name":1,"state":1,"city":1,"address":1}},"type":{"primary":"unresolved"},"amount":84,"date":"2013-12-23","name":"Zerve Tours Shows Events","meta":{"location":{"zip":"10013","state":"NY","city":"New York","address":"Rm 604"}},"_account":"52db1be4be13cbc36e000005","_id":"52db1bebbe13cbc36e0000f3","_entity":"52a24f89d627f2b54d00fb90","category":["Travel","Travel Agencies"],"category_id":"52544965f71e87d0070001cf"},{"score":{"master":1,"detail":{"zip":1,"name":1,"state":1,"city":1,"address":1}},"type":{"primary":"unresolved"},"amount":5.12,"date":"2013-12-19","name":"Chevron Usa","meta":{"location":{"zip":"94520","state":"CA","city":"Concord","address":"2003 Diamond Blvd"}},"_account":"52db1be4be13cbc36e000005","_id":"52db1bebbe13cbc36e000109","_entity":"5268478c5f23a60b0e000527","category":["Travel","Gas Stations"],"category_id":"52544965f71e87d0070001c0"},{"score":{"master":1,"detail":{"zip":1,"name":1,"state":1,"city":1,"address":1}},"type":{"primary":"unresolved"},"amount":20.57,"date":"2013-12-22","name":"Thelooppizzagrille","meta":{"location":{"zip":"27103","state":"NC","city":"Winston Salem","address":"320 S Stratford Rd"}},"_account":"52db1be4be13cbc36e000005","_id":"52db1bebbe13cbc36e00010b","_entity":"52b993aafd90ebfd53000137","category":["Food & Drink","Restaurants"],"category_id":"52544965f71e87d00700004c"},{"score":{"master":1,"detail":{"zip":1,"name":1,"state":1,"city":1,"address":1}},"type":{"primary":"place"},"amount":24.55,"date":"2013-12-22","name":"Van Davis Aveda","meta":{"location":{"coordinates":{"lng":-80.2816481,"lat":36.092929},"zip":"27103","state":"NC","city":"Winston Salem","address":"244 S Stratford Rd"},"contact":{"telephone":"3367211332"},"ids":{"foursquare":"4bc4d3974cdfc9b6ad389921"}},"_account":"52db1be4be13cbc36e000005","_id":"52db1bebbe13cbc36e000111","_entity":"52684e345f23a60b0e007824","category":["Service","Personal Care","Hair Salons and Barbers"],"category_id":"52544965f71e87d00700014e"},{"score":{"master":1,"detail":{"zip":1,"name":1,"state":1,"city":1,"address":1}},"type":{"primary":"unresolved"},"amount":50,"date":"2013-12-21","name":"Uber","meta":{"location":{"zip":"94105","state":"CA","city":"San Francisco","address":"182 Howard Street"}},"_account":"52db1be4be13cbc36e000005","_id":"52db1bebbe13cbc36e0000f1","_entity":"5294a976b71800e809000016","category":["Travel"],"category_id":"52544965f71e87d0070001b8"},{"score":{"master":1,"detail":{"zip":1,"name":1,"state":1,"city":1,"address":1}},"type":{"primary":"unresolved"},"amount":3.12,"date":"2013-12-21","name":"Starbucks Term C#153","meta":{"location":{"zip":"27623","state":"NC","city":"Raleigh","address":"1025 Airside Dr, Ste 2101"}},"_account":"52db1be4be13cbc36e000005","_id":"52db1be9be13cbc36e0000e0","_entity":"52684e205f23a60b0e00758b","category":["Food & Drink","Nightlife","Bar"],"category_id":"52544965f71e87d007000044"},{"score":{"master":1,"detail":{"zip":1,"name":1,"state":1,"city":1,"address":1}},"type":{"primary":"unresolved"},"amount":35.96,"date":"2013-12-22","name":"Wilco Fuel Plaza 1122","meta":{"location":{"zip":"27103","state":"NC","city":"Winston Salem","address":"2026 S Hawthorne Rd"}},"_account":"52db1be4be13cbc36e000005","_id":"52db1bebbe13cbc36e000113","_entity":"52b993acd6da4e7c0b0002e1","category":["Travel","Gas Stations"],"category_id":"52544965f71e87d0070001c0"},{"score":{"master":1,"detail":{"zip":1,"name":1,"state":1,"city":1,"address":1}},"type":{"primary":"place"},"amount":69,"date":"2013-12-21","name":"L L Bean","meta":{"location":{"coordinates":{"lng":-70.102862,"lat":43.857211},"zip":"04032","state":"ME","city":"Freeport","address":"95 Main St"},"contact":{"telephone":"(207) 865-6660"},"ids":{"factual":"22963af1-7bf9-492d-818b-4bb355d1fe62"}},"_account":"52db1be4be13cbc36e000005","_id":"52db1bebbe13cbc36e000108","_entity":"5278254010ce27ec03003e7a","category":["Food & Drink","Restaurants"],"category_id":"52544965f71e87d00700004c"},{"score":{"master":0.5,"detail":{"identifier":1}},"type":{"primary":"special"},"amount":8.98,"date":"2014-01-16","name":"Interest Charges on Purchases","meta":{"location":{}},"_account":"52db1be4be13cbc36e000006","_id":"52db1be7be13cbc36e0000b4","_entity":"51df517968ab247d41000004"},{"score":{"master":0.5,"detail":{"identifier":1}},"type":{"primary":"digital","secondary":"unresolved"},"amount":260.86,"date":"2014-01-16","name":"EVENTBRITE","meta":{"location":{},"contact":{"website":"*meatup.io"}},"_account":"52db1be4be13cbc36e000006","_id":"52db1be7be13cbc36e0000d0","_entity":"52a3f098524beee12801ddae","category":["Arts & Entertainment","Entertainment"],"category_id":"52544965f71e87d00700000a"},{"score":{"master":0.5,"detail":{"identifier":1}},"type":{"primary":"special"},"amount":-1000,"date":"2014-01-02","name":"Online Credit Card Payment","meta":{"location":{}},"_account":"52db1be4be13cbc36e000006","_id":"52db1be6be13cbc36e000079","_entity":"51df2f4f364351e13d00000a"},{"score":{"master":1,"detail":{"zip":1,"name":1,"state":1,"city":1,"address":1}},"type":{"primary":"place"},"amount":64.99,"date":"2014-01-04","name":"Crunch","meta":{"location":{"coordinates":{"lng":-73.9984,"lat":40.74205},"zip":"10011","state":"NY","city":"New York","address":"220 West 19th Street"},"contact":{"telephone":"2123700998"},"ids":{"foursquare":"5065e558011c9fb87575b212"}},"_account":"52db1be4be13cbc36e000006","_id":"52db1bebbe13cbc36e0000fb","_entity":"52d08c2629b10e5f6a056eee","category":["Parks & Outdoors","Gyms and Fitness Centers"],"category_id":"52544965f71e87d00700009a"},{"score":{"master":1,"detail":{"zip":1,"name":1,"state":1,"city":1,"address":1}},"type":{"primary":"unresolved"},"amount":9.8,"date":"2014-01-03","name":"Nyc Bike Share","meta":{"location":{"zip":"97214","state":"OR","city":"Portland","address":"711 Se Grand Avenue"}},"_account":"52db1be4be13cbc36e000006","_id":"52db1bebbe13cbc36e0000ec","_entity":"52684c045f23a60b0e001b17","category":["Miscellaneous"],"category_id":"52544965f71e87d007000088"},{"score":{"master":0.5,"detail":{"identifier":1}},"type":{"primary":"special"},"amount":-214.76,"date":"2014-01-15","name":"Online Credit Card Payment","meta":{"location":{}},"_account":"52db1be4be13cbc36e000006","_id":"52db1be6be13cbc36e00007c","_entity":"51df2f4f364351e13d00000a"},{"score":{"master":1,"detail":{"zip":1,"name":1,"state":1,"city":1,"address":1}},"type":{"primary":"place"},"amount":28.85,"date":"2014-01-17","name":"La Folie","meta":{"location":{"coordinates":{"lng":-122.42219641613993,"lat":37.79805635393336},"zip":"94109","state":"CA","city":"San Francisco","address":"2316 Polk St"},"contact":{"telephone":"4157765577"},"ids":{"foursquare":"49e04b9af964a5204f611fe3","factual":"09740eae-2f29-4079-a828-fced3d4bd52b"}},"_account":"52db1be4be13cbc36e000006","_id":"52db1bebbe13cbc36e000114","_entity":"527c3ec3a82308293a008586","category":["Food & Drink","Restaurants","French"],"category_id":"52544965f71e87d00700006c"},{"score":{"master":1,"detail":{"zip":1,"name":1,"state":1,"city":1,"address":1}},"type":{"primary":"place"},"amount":139.97,"date":"2014-01-01","name":"Crunch","meta":{"location":{"coordinates":{"lng":-122.42223,"lat":37.79827},"zip":"94109","state":"CA","city":"San Francisco","address":"2330 Polk Street"},"contact":{"telephone":"4152925444"},"ids":{"foursquare":"49d79743f964a520385d1fe3","factual":"ccd1c1d1-fd81-4535-98fe-64ac2364af15"}},"_account":"52db1be4be13cbc36e000006","_id":"52db1be9be13cbc36e0000d8","_entity":"52a6ff1c949382717e00e816","category":["Parks & Outdoors","Gyms and Fitness Centers"],"category_id":"52544965f71e87d00700009a"},{"score":{"master":0.5,"detail":{"identifier":1}},"type":{"primary":"special"},"amount":-923.26,"date":"2013-12-24","name":"Online Credit Card Payment","meta":{"location":{}},"_account":"52db1be4be13cbc36e000006","_id":"52db1be6be13cbc36e00007d","_entity":"51df2f4f364351e13d00000a"}],"access_token":"test"}